{"type": "FeatureCollection", "features": [{"type": "Feature", "geometry": {"type": "Point", "coordinates": [152.961725080243, -27.3964373692558]}, "properties": {"name": "AHL - Arana Hills (33/11kV)", "code": "AHL", "network": "Energex", "constrained": true, "type": "Zone Substation"}}, {"type": "Feature", "geometry": {"type": "Point", "coordinates": [153.015526110032, -27.3285551291125]}, "properties": {"name": "BHL - Bald Hills Bus 2 (33/11kV)", "code": "BHL", "network": "Energex", "constrained": true, "type": "Zone Substation"}}, {"type": "Feature", "geometry": {"type": "Point", "coordinates": [153.22100997029, -27.5084847392346]}, "properties": {"name": "BKD - Birkdale (33/11kV)", "code": "BKD", "network": "Energex", "constrained": true, "type": "Zone Substation"}}, {"type": "Feature", "geometry": {"type": "Point", "coordinates": [153.153920829714, -27.0635990199376]}, "properties": {"name": "BIS - Bribie Island (33/11kV)", "code": "BIS", "network": "Energex", "constrained": true, "type": "Zone Substation"}}, {"type": "Feature", "geometry": {"type": "Point", "coordinates": [152.934551750617, -27.0811834200423]}, "properties": {"name": "CBW - Caboolture West (33/11kV)", "code": "CBW", "network": "Energex", "constrained": true, "type": "Zone Substation"}}, {"type": "Feature", "geometry": {"type": "Point", "coordinates": [153.050720330081, -27.6151612889068]}, "properties": {"name": "CMV - Calamvale (33/11kV)", "code": "CMV", "network": "Energex", "constrained": true, "type": "Zone Substation"}}, {"type": "Feature", "geometry": {"type": "Point", "coordinates": [153.130910120125, -26.8006190485262]}, "properties": {"name": "CLD - Caloundra (132/11kV)", "code": "CLD", "network": "Energex", "constrained": true, "type": "Zone Substation"}}, {"type": "Feature", "geometry": {"type": "Point", "coordinates": [153.293843960101, -27.85516656834]}, "properties": {"name": "CMA - Coomera (33/11kV)", "code": "CMA", "network": "Energex", "constrained": true, "type": "Zone Substation"}}, {"type": "Feature", "geometry": {"type": "Point", "coordinates": [152.820445439292, -27.6365388190397]}, "properties": {"name": "CNA - Cooneana (33/11kV)", "code": "CNA", "network": "Energex", "constrained": true, "type": "Zone Substation"}}, {"type": "Feature", "geometry": {"type": "Point", "coordinates": [153.214817410196, -27.6635938098302]}, "properties": {"name": "CNB - Cornubia (33/11kV)", "code": "CNB", "network": "Energex", "constrained": true, "type": "Zone Substation"}}, {"type": "Feature", "geometry": {"type": "Point", "coordinates": [153.165147379851, -27.3936336996837]}, "properties": {"name": "FBS - Fisherman Is B (33/11kV)", "code": "FBS", "network": "Energex", "constrained": true, "type": "Zone Substation"}}, {"type": "Feature", "geometry": {"type": "Point", "coordinates": [152.877843683944, -27.6216942116452]}, "properties": {"name": "GNA - Goodna (33/11kV)", "code": "GNA", "network": "Energex", "constrained": true, "type": "Zone Substation"}}, {"type": "Feature", "geometry": {"type": "Point", "coordinates": [152.980079311264, -27.642459529033]}, "properties": {"name": "HWD - Heathwood (33/11kV)", "code": "HWD", "network": "Energex", "constrained": true, "type": "Zone Substation"}}, {"type": "Feature", "geometry": {"type": "Point", "coordinates": [153.360377940746, -27.8792978982875]}, "properties": {"name": "HIS - Hope Island (33/11kV)", "code": "HIS", "network": "Energex", "constrained": true, "type": "Zone Substation"}}, {"type": "Feature", "geometry": {"type": "Point", "coordinates": [152.761000039456, -27.6387483381442]}, "properties": {"name": "IPS - Ipswich South (33/11kV)", "code": "IPS", "network": "Energex", "constrained": true, "type": "Zone Substation"}}, {"type": "Feature", "geometry": {"type": "Point", "coordinates": [153.044443680182, -27.8089274697989]}, "properties": {"name": "JBB - Jimboomba (33/11kV)", "code": "JBB", "network": "Energex", "constrained": true, "type": "Zone Substation"}}, {"type": "Feature", "geometry": {"type": "Point", "coordinates": [152.993763081074, -27.2511543893177]}, "properties": {"name": "KLG - Kallangur (33/11kV)", "code": "KLG", "network": "Energex", "constrained": true, "type": "Zone Substation"}}, {"type": "Feature", "geometry": {"type": "Point", "coordinates": [152.969987159941, -26.8080189494183]}, "properties": {"name": "LBH - Landsborough (33/11kV)", "code": "LBH", "network": "Energex", "constrained": true, "type": "Zone Substation"}}, {"type": "Feature", "geometry": {"type": "Point", "coordinates": [153.10922646007, -27.7700961890107]}, "properties": {"name": "LGV - Logan Village (33/11kV)", "code": "LGV", "network": "Energex", "constrained": true, "type": "Zone Substation"}}, {"type": "Feature", "geometry": {"type": "Point", "coordinates": [152.593735989717, -27.5654210500054]}, "properties": {"name": "MBG - Marburg (33/11kV)", "code": "MBG", "network": "Energex", "constrained": true, "type": "Zone Substation"}}, {"type": "Feature", "geometry": {"type": "Point", "coordinates": [153.068878949997, -26.7090468595524]}, "properties": {"name": "MLB - Mooloolaba (132/11kV)", "code": "MLB", "network": "Energex", "constrained": true, "type": "Zone Substation"}}, {"type": "Feature", "geometry": {"type": "Point", "coordinates": [152.959378599376, -27.1341615589466]}, "properties": {"name": "MFD - Morayfield (33/11kV)", "code": "MFD", "network": "Energex", "constrained": true, "type": "Zone Substation"}}, {"type": "Feature", "geometry": {"type": "Point", "coordinates": [152.951820839699, -27.0979674189031]}, "properties": {"name": "MFN - Morayfield North (33/11kV)", "code": "MFN", "network": "Energex", "constrained": true, "type": "Zone Substation"}}, {"type": "Feature", "geometry": {"type": "Point", "coordinates": [153.35253809032, -28.0829992290861]}, "properties": {"name": "MGP - Mudgeeraba West Pkg (33/11kV)", "code": "MGP", "network": "Energex", "constrained": true, "type": "Zone Substation"}}, {"type": "Feature", "geometry": {"type": "Point", "coordinates": [152.986151070711, -27.7444018694427]}, "properties": {"name": "NMC - North Maclean Bus 1 (33/11kV)", "code": "NMC", "network": "Energex", "constrained": true, "type": "Zone Substation"}}, {"type": "Feature", "geometry": {"type": "Point", "coordinates": [152.986151070711, -27.7444018694427]}, "properties": {"name": "NMC - North Maclean Bus 2 (33/11kV)", "code": "NMC", "network": "Energex", "constrained": true, "type": "Zone Substation"}}, {"type": "Feature", "geometry": {"type": "Point", "coordinates": [152.95026354973, -26.689331249498]}, "properties": {"name": "PWC - Palmwoods Central (33/11kV)", "code": "PWC", "network": "Energex", "constrained": true, "type": "Zone Substation"}}, {"type": "Feature", "geometry": {"type": "Point", "coordinates": [153.335594200208, -27.8111817192334]}, "properties": {"name": "PPE - Pimpama East (33/11kV)", "code": "PPE", "network": "Energex", "constrained": true, "type": "Zone Substation"}}, {"type": "Feature", "geometry": {"type": "Point", "coordinates": [152.899750490201, -27.2260933587117]}, "properties": {"name": "WSE - Whiteside (33/11kV)", "code": "WSE", "network": "Energex", "constrained": true, "type": "Zone Substation"}}, {"type": "Feature", "geometry": {"type": "Point", "coordinates": [152.630458380078, -27.4098407894071]}, "properties": {"name": "WHO - Wivenhoe (33/11kV)", "code": "WHO", "network": "Energex", "constrained": true, "type": "Zone Substation"}}, {"type": "Feature", "geometry": {"type": "Point", "coordinates": [152.788581859721, -26.9707128196086]}, "properties": {"name": "WFD - Woodford (33/11kV)", "code": "WFD", "network": "Energex", "constrained": true, "type": "Zone Substation"}}, {"type": "Feature", "geometry": {"type": "Point", "coordinates": [153.228842719252, -27.760881389014]}, "properties": {"name": "YTA - Yatala Bus 3 (110/11kV)", "code": "YTA", "network": "Energex", "constrained": true, "type": "Zone Substation"}}, {"type": "Feature", "geometry": {"type": "Point", "coordinates": [153.030527670649, -27.3586081888556]}, "properties": {"name": "ZMR - Zillmere (33/11kV)", "code": "ZMR", "network": "Energex", "constrained": true, "type": "Zone Substation"}}, {"type": "Feature", "geometry": {"type": "Point", "coordinates": [153.208403156093, -27.7246877486621]}, "properties": {"name": "BLH - Beenleigh BS (110/33kV)", "code": "BLH", "network": "Energex", "constrained": true, "type": "Bulk Supply"}}, {"type": "Feature", "geometry": {"type": "Point", "coordinates": [153.037611979488, -27.6626142389633]}, "properties": {"name": "BPN - Browns Plains BS (110/33kV)", "code": "BPN", "network": "Energex", "constrained": true, "type": "Bulk Supply"}}, {"type": "Feature", "geometry": {"type": "Point", "coordinates": [152.963135602599, -27.065202684776]}, "properties": {"name": "CBT - Caboolture BS (110/33kV)", "code": "CBT", "network": "Energex", "constrained": true, "type": "Bulk Supply"}}, {"type": "Feature", "geometry": {"type": "Point", "coordinates": [153.253087060013, -27.5464240097804]}, "properties": {"name": "CVL - Cleveland BS (110/33kV)", "code": "CVL", "network": "Energex", "constrained": true, "type": "Bulk Supply"}}, {"type": "Feature", "geometry": {"type": "Point", "coordinates": [153.293843960101, -27.85516656834]}, "properties": {"name": "CMA - Coomera BS (110/33kV)", "code": "CMA", "network": "Energex", "constrained": true, "type": "Bulk Supply"}}, {"type": "Feature", "geometry": {"type": "Point", "coordinates": [153.044443680182, -27.8089274697989]}, "properties": {"name": "JBB - Jimboomba BS (110/33kV)", "code": "JBB", "network": "Energex", "constrained": true, "type": "Bulk Supply"}}, {"type": "Feature", "geometry": {"type": "Point", "coordinates": [152.96105092674, -26.6157214669903]}, "properties": {"name": "NBR - Nambour BS (132/33kV)", "code": "NBR", "network": "Energex", "constrained": true, "type": "Bulk Supply"}}, {"type": "Feature", "geometry": {"type": "Point", "coordinates": [152.778882600531, -27.630670719858]}, "properties": {"name": "RVW - Raceview BS (110/33kV)", "code": "RVW", "network": "Energex", "constrained": true, "type": "Bulk Supply"}}, {"type": "Feature", "geometry": {"type": "Point", "coordinates": [148.1618622, -23.5263118]}, "properties": {"name": "EMER - Emerald (66/22kV)", "code": "EMER", "network": "Ergon", "constrained": true, "limitations": "Asset Condition, Reliability"}}, {"type": "Feature", "geometry": {"type": "Point", "coordinates": [146.7709268, -19.255792]}, "properties": {"name": "GARB - Garbutt (132/66/11kV)", "code": "GARB", "network": "Ergon", "constrained": true, "limitations": "Asset Condition, Reliability"}}, {"type": "Feature", "geometry": {"type": "Point", "coordinates": [151.9303591, -27.6030794]}, "properties": {"name": "WETO - West Toowoomba (33/11kV)", "code": "WETO", "network": "Ergon", "constrained": true, "limitations": "Asset Condtion, Reliability"}}, {"type": "Feature", "geometry": {"type": "Point", "coordinates": [151.8868179, -27.54552]}, "properties": {"name": "TORR - Torrington (33/11kV)", "code": "TORR", "network": "Ergon", "constrained": true, "limitations": "Asset Condition, Reliability"}}, {"type": "Feature", "geometry": {"type": "Point", "coordinates": [152.3703235, -24.8569103]}, "properties": {"name": "EABU - East Bundaberg (66/11kV)", "code": "EABU", "network": "Ergon", "constrained": true, "limitations": "Asset Condition, Reliability"}}, {"type": "Feature", "geometry": {"type": "Point", "coordinates": [152.8330071, -25.281161]}, "properties": {"name": "PIAL - Pialba (66/11kV)", "code": "PIAL", "network": "Ergon", "constrained": true, "limitations": "Asset Condition, Reliability"}}, {"type": "Feature", "geometry": {"type": "Point", "coordinates": [147.1550176, -22.8392872]}, "properties": {"name": "CLER - Clermont (66/22kV)", "code": "CLER", "network": "Ergon", "constrained": true, "limitations": "Asset Condition, Reliability"}}, {"type": "Feature", "geometry": {"type": "Point", "coordinates": [146.5164868, -21.0251302]}, "properties": {"name": "CARI - Cape River (66/11kV)", "code": "CARI", "network": "Ergon", "constrained": true, "limitations": "Asset Condition, Reliability"}}, {"type": "Feature", "geometry": {"type": "Point", "coordinates": [147.2404092, -19.700995]}, "properties": {"name": "MOPA - Mona Park (66/11kV)", "code": "MOPA", "network": "Ergon", "constrained": true, "limitations": "Asset Condition, Reliability"}}, {"type": "Feature", "geometry": {"type": "Point", "coordinates": [151.8394231, -26.5412563]}, "properties": {"name": "KING - Kingaroy (66/11kV)", "code": "KING", "network": "Ergon", "constrained": true, "limitations": "Asset Condition, Reliability"}}, {"type": "Feature", "geometry": {"type": "Point", "coordinates": [150.5029697, -23.3992007]}, "properties": {"name": "ROSO - Rockhampton South (66/11kV)", "code": "ROSO", "network": "Ergon", "constrained": true, "limitations": "Asset Condition, Reliability"}}, {"type": "Feature", "geometry": {"type": "Point", "coordinates": [143.5476606, -18.2897926]}, "properties": {"name": "GEOR - Georgetown (66/22kV)", "code": "GEOR", "network": "Ergon", "constrained": true, "limitations": "Asset Condition, Reliability"}}, {"type": "Feature", "geometry": {"type": "Point", "coordinates": [152.7019182, -25.537583]}, "properties": {"name": "MARY - Maryborough", "code": "MARY", "network": "Ergon", "constrained": true, "limitations": "Asset Condition, Reliability"}}, {"type": "Feature", "geometry": {"type": "Point", "coordinates": [150.5261, -23.3528]}, "properties": {"name": "ROGL - Rockhampton Glenmore (66/11kV)", "code": "ROGL", "network": "Ergon", "constrained": true, "limitations": "Asset Condition, Reliability"}}, {"type": "Feature", "geometry": {"type": "Point", "coordinates": [150.5141867, -24.3997711]}, "properties": {"name": "BILO - Biloela (66/11kV)", "code": "BILO", "network": "Ergon", "constrained": true, "limitations": "Asset Condition, Reliability"}}, {"type": "Feature", "geometry": {"type": "Point", "coordinates": [151.1779748, -26.729752]}, "properties": {"name": "JAND - Jandowae (33/11kV)", "code": "JAND", "network": "Ergon", "constrained": true, "limitations": "Asset Condition, Reliability"}}, {"type": "Feature", "geometry": {"type": "Point", "coordinates": [151.9185188, -27.4245587]}, "properties": {"name": "MERN - Meringandan (33/11kV)", "code": "MERN", "network": "Ergon", "constrained": true, "limitations": "Augmentation, Capacity"}}, {"type": "Feature", "geometry": {"type": "Point", "coordinates": [149.0223067, -21.150371]}, "properties": {"name": "PLEY - Pleystowe (33/11kV)", "code": "PLEY", "network": "Ergon", "constrained": true, "limitations": "Asset Condition, Reliability"}}, {"type": "Feature", "geometry": {"type": "Point", "coordinates": [145.4349984, -17.0853876]}, "properties": {"name": "TURK - Turkinje (132/66kV)", "code": "TURK", "network": "Ergon", "constrained": true, "limitations": "Asset Condition, Reliability"}}, {"type": "Feature", "geometry": {"type": "Point", "coordinates": [150.6228556, -26.7501005]}, "properties": {"name": "CHIN - Chinchilla", "code": "CHIN", "network": "Ergon", "constrained": true, "limitations": "Asset Condition, Reliability"}}, {"type": "Feature", "geometry": {"type": "Point", "coordinates": [149.1645943, -21.435808]}, "properties": {"name": "SARI - Sarina (33/11kV)", "code": "SARI", "network": "Ergon", "constrained": true, "limitations": "Asset Condition, Reliability"}}, {"type": "Feature", "geometry": {"type": "Point", "coordinates": [151.2664523, -23.8645135]}, "properties": {"name": "GLSO - Gladstone South (66/11kV)", "code": "GLSO", "network": "Ergon", "constrained": true, "limitations": "Asset Condition, Reliability"}}, {"type": "Feature", "geometry": {"type": "Point", "coordinates": [146.7532249, -19.305269]}, "properties": {"name": "CRAN - Cranbrook (66/11kV)", "code": "CRAN", "network": "Ergon", "constrained": true, "limitations": "Asset Condition, Reliability"}}, {"type": "Feature", "geometry": {"type": "Point", "coordinates": [149.1458446, -21.2390585]}, "properties": {"name": "ROSE - Rosella (33/11kV)", "code": "ROSE", "network": "Ergon", "constrained": true, "limitations": "Asset Condition, Reliability"}}, {"type": "Feature", "geometry": {"type": "Point", "coordinates": [152.0327039, -28.2163204]}, "properties": {"name": "WARW - Warwick (110/33kV)", "code": "WARW", "network": "Ergon", "constrained": true, "limitations": "Asset Condition, Reliability"}}, {"type": "Feature", "geometry": {"type": "Point", "coordinates": [152.4925138, -25.1173]}, "properties": {"name": "WOOG - Woodgate (66/11kV)", "code": "WOOG", "network": "Ergon", "constrained": true, "limitations": "Asset Condition, Reliability"}}, {"type": "Feature", "geometry": {"type": "Point", "coordinates": [145.7694546, -16.9044645]}, "properties": {"name": "CANO - Cairns North (132/22kV)", "code": "CANO", "network": "Ergon", "constrained": true, "limitations": "Asset Condition, Reliability"}}, {"type": "Feature", "geometry": {"type": "Point", "coordinates": [151.9666667, -27.8]}, "properties": {"name": "MOSI - Mt Sibley (33/11kV)", "code": "MOSI", "network": "Ergon", "constrained": true, "limitations": "Asset Condition, Reliability"}}, {"type": "Feature", "geometry": {"type": "Point", "coordinates": [147.4044626, -19.5758597]}, "properties": {"name": "AYRZ - Ayr (66/11kV)", "code": "AYRZ", "network": "Ergon", "constrained": true, "limitations": "Asset Condition, Reliability"}}, {"type": "Feature", "geometry": {"type": "Point", "coordinates": [151.3926194, -27.791472]}, "properties": {"name": "PAMP - Pampas (33/11kV)", "code": "PAMP", "network": "Ergon", "constrained": true, "limitations": "Asset Condition, Reliability"}}, {"type": "Feature", "geometry": {"type": "Point", "coordinates": [152.7016999, -25.5377995]}, "properties": {"name": "MACI - Maryborough City (66/11kV)", "code": "MACI", "network": "Ergon", "constrained": true, "limitations": "Asset Condition, Reliability"}}, {"type": "Feature", "geometry": {"type": "Point", "coordinates": [146.2794872, -20.092656]}, "properties": {"name": "MILC - Millchester (66/11kV)", "code": "MILC", "network": "Ergon", "constrained": true, "limitations": "Asset Condition, Reliability"}}, {"type": "Feature", "geometry": {"type": "Point", "coordinates": [147.2635, -19.7621]}, "properties": {"name": "CLSO - Clare South (66/11kV)", "code": "CLSO", "network": "Ergon", "constrained": true, "limitations": "Asset Condition, Reliability"}}, {"type": "Feature", "geometry": {"type": "Point", "coordinates": [151.9803319, -25.4785395]}, "properties": {"name": "DEGI - Degilbo (66/11kV)", "code": "DEGI", "network": "Ergon", "constrained": true, "limitations": "Asset Condition, Reliability"}}, {"type": "Feature", "geometry": {"type": "Point", "coordinates": [147.4135855, -19.659461]}, "properties": {"name": "HOHI - Home Hill (66/11kV)", "code": "HOHI", "network": "Ergon", "constrained": true, "limitations": "Asset Condition, Reliability"}}, {"type": "Feature", "geometry": {"type": "Point", "coordinates": [151.21223, -33.882476]}, "properties": {"name": "Fdr 386 Surry Hills STS - Darlinghurst Tx 4", "code": "Fdr 386 Su", "network": "Ausgrid", "constrained": true, "limitations": "Asset condition - 33kV feeder"}}, {"type": "Feature", "geometry": {"type": "Point", "coordinates": [151.21223, -33.882476]}, "properties": {"name": "Fdr 389 Surry Hills STS - Darlinghurst Tx 3", "code": "Fdr 389 Su", "network": "Ausgrid", "constrained": true, "limitations": "Asset condition - 33kV feeder"}}, {"type": "Feature", "geometry": {"type": "Point", "coordinates": [151.20453, -33.947604]}, "properties": {"name": "Botany ZS", "code": "Botany ZS", "network": "Ausgrid", "constrained": true, "limitations": "Asset condition - 11kV switchgear"}}, {"type": "Feature", "geometry": {"type": "Point", "coordinates": [151.185452554749, -33.8170871981342]}, "properties": {"name": "Willoughby STS", "code": "Willoughby", "network": "Ausgrid", "constrained": true, "limitations": "Asset Condition - 33kV switchgear"}}, {"type": "Feature", "geometry": {"type": "Point", "coordinates": [151.73646, -32.935147]}, "properties": {"name": "Merewether STS", "code": "Merewether", "network": "Ausgrid", "constrained": true, "limitations": "Asset Condition - 33kV switchgear"}}, {"type": "Feature", "geometry": {"type": "Point", "coordinates": [151.1155, -33.976989]}, "properties": {"name": "Blakehurst ZS", "code": "Blakehurst", "network": "Ausgrid", "constrained": true, "limitations": "Asset condition - 11kV switchgear"}}, {"type": "Feature", "geometry": {"type": "Point", "coordinates": [151.062604536052, -33.9658887604909]}, "properties": {"name": "Fdr 769 Peakhurst STS - Blakehurst", "code": "Fdr 769 Pe", "network": "Ausgrid", "constrained": true, "limitations": "Asset Condition - 33kV feeder"}}, {"type": "Feature", "geometry": {"type": "Point", "coordinates": [151.062604536052, -33.9658887604909]}, "properties": {"name": "Fdr 770 Peakhurst STS - Blakehurst", "code": "Fdr 770 Pe", "network": "Ausgrid", "constrained": true, "limitations": "Asset Condition - 33kV feeder"}}, {"type": "Feature", "geometry": {"type": "Point", "coordinates": [151.13233, -33.787249]}, "properties": {"name": "Wallumatta STS (Macquarie Park)", "code": "Wallumatta", "network": "Ausgrid", "constrained": true, "limitations": "Load growth - Substation capacity and connection points"}}, {"type": "Feature", "geometry": {"type": "Point", "coordinates": [151.1906, -33.914409]}, "properties": {"name": "Mascot East", "code": "Mascot Eas", "network": "Ausgrid", "constrained": true, "limitations": "Load growth - Substation capacity and connection points"}}, {"type": "Feature", "geometry": {"type": "Point", "coordinates": [147.64766, -37.80837]}, "properties": {"name": "BDL - Bairnsdale (BDL)", "code": "BDL", "network": "AusNet", "constrained": true, "limitations": "Safety"}}, {"type": "Feature", "geometry": {"type": "Point", "coordinates": [145.96176, -36.55601]}, "properties": {"name": "BN - Benalla (BN)", "code": "BN", "network": "AusNet", "constrained": true, "limitations": "Asset Condition"}}, {"type": "Feature", "geometry": {"type": "Point", "coordinates": [145.27189, -37.83473]}, "properties": {"name": "BWR - Bayswater (BWR)", "code": "BWR", "network": "AusNet", "constrained": true, "limitations": "Asset Condition"}}, {"type": "Feature", "geometry": {"type": "Point", "coordinates": [145.33297, -38.09483]}, "properties": {"name": "CLN - Clyde North (CLN)", "code": "CLN", "network": "AusNet", "constrained": true, "limitations": "Capacity"}}, {"type": "Feature", "geometry": {"type": "Point", "coordinates": [145.13389, -37.60524]}, "properties": {"name": "DRN - Doreen (DRN)", "code": "DRN", "network": "AusNet", "constrained": true, "limitations": "Reliability"}}, {"type": "Feature", "geometry": {"type": "Point", "coordinates": [145.02631, -37.65253]}, "properties": {"name": "EPG - Epping (EPG)", "code": "EPG", "network": "AusNet", "constrained": true, "limitations": "Reliability"}}, {"type": "Feature", "geometry": {"type": "Point", "coordinates": [145.31635, -37.51517]}, "properties": {"name": "KLK - Kinglake (KLK)", "code": "KLK", "network": "AusNet", "constrained": true, "limitations": "Safety"}}, {"type": "Feature", "geometry": {"type": "Point", "coordinates": [144.940788225, -37.538614529]}, "properties": {"name": "KLO - Kalkallo (KLO)", "code": "KLO", "network": "AusNet", "constrained": true, "limitations": "Capacity"}}, {"type": "Feature", "geometry": {"type": "Point", "coordinates": [144.97194, -37.31799]}, "properties": {"name": "KMS - Kilmore South (KMS)", "code": "KMS", "network": "AusNet", "constrained": true, "limitations": "Asset Condition"}}, {"type": "Feature", "geometry": {"type": "Point", "coordinates": [145.55641, -38.26753]}, "properties": {"name": "LLG - Lang Lang (LLG)", "code": "LLG", "network": "AusNet", "constrained": true, "limitations": "Reliability"}}, {"type": "Feature", "geometry": {"type": "Point", "coordinates": [145.35806, -37.76354]}, "properties": {"name": "LDL - Lilydale (LDL)", "code": "LDL", "network": "AusNet", "constrained": true, "limitations": "Safety"}}, {"type": "Feature", "geometry": {"type": "Point", "coordinates": [146.9821, -37.97089]}, "properties": {"name": "MFA - Maffra (MFA)", "code": "MFA", "network": "AusNet", "constrained": true, "limitations": "Asset Condition"}}, {"type": "Feature", "geometry": {"type": "Point", "coordinates": [146.07123, -37.05044]}, "properties": {"name": "MSD - Mansfield (MSD)", "code": "MSD", "network": "AusNet", "constrained": true, "limitations": "Reliability"}}, {"type": "Feature", "geometry": {"type": "Point", "coordinates": [146.70302, -36.56539]}, "properties": {"name": "MYT - Myrtleford (MYT)", "code": "MYT", "network": "AusNet", "constrained": true, "limitations": "Reliability"}}, {"type": "Feature", "geometry": {"type": "Point", "coordinates": [148.42519, -37.73931]}, "properties": {"name": "NLA - Newmerella (NLA)", "code": "NLA", "network": "AusNet", "constrained": true, "limitations": "Reliability"}}, {"type": "Feature", "geometry": {"type": "Point", "coordinates": [145.444574095, -38.051720237]}, "properties": {"name": "OFR - Officer (OFR)", "code": "OFR", "network": "AusNet", "constrained": true, "limitations": "Reliability"}}, {"type": "Feature", "geometry": {"type": "Point", "coordinates": [145.49419, -38.07079]}, "properties": {"name": "PHM - Pakenham (PHM)", "code": "PHM", "network": "AusNet", "constrained": true, "limitations": "Reliability"}}, {"type": "Feature", "geometry": {"type": "Point", "coordinates": [145.15452, -37.03603]}, "properties": {"name": "SMR - Seymour (SMR)", "code": "SMR", "network": "AusNet", "constrained": true, "limitations": "Safety"}}, {"type": "Feature", "geometry": {"type": "Point", "coordinates": [145.01077, -37.69088]}, "properties": {"name": "TT - Thomastown (TT)", "code": "TT", "network": "AusNet", "constrained": true, "limitations": "Asset Condition"}}, {"type": "Feature", "geometry": {"type": "Point", "coordinates": [146.56011, -38.18926]}, "properties": {"name": "TGN - Traralgon (TGN)", "code": "TGN", "network": "AusNet", "constrained": true, "limitations": "Asset Condition"}}, {"type": "Feature", "geometry": {"type": "Point", "coordinates": [145.08575, -37.71335]}, "properties": {"name": "WT - Watsonia (WT)", "code": "WT", "network": "AusNet", "constrained": true, "limitations": "Asset Condition"}}, {"type": "Feature", "geometry": {"type": "Point", "coordinates": [146.31435, -36.36455]}, "properties": {"name": "WN - Wangaratta (WN)", "code": "WN", "network": "AusNet", "constrained": true, "limitations": "Reliability"}}, {"type": "Feature", "geometry": {"type": "Point", "coordinates": [145.942734283, -38.154092261]}, "properties": {"name": "WGL - Warragul (WGL)", "code": "WGL", "network": "AusNet", "constrained": true, "limitations": "Asset Condition"}}, {"type": "Feature", "geometry": {"type": "Point", "coordinates": [145.60978, -38.59392]}, "properties": {"name": "WGI - Wonthaggi (WGI)", "code": "WGI", "network": "AusNet", "constrained": true, "limitations": "Reliability"}}, {"type": "Feature", "geometry": {"type": "Point", "coordinates": [145.60978, -38.59392]}, "properties": {"name": "WYK - Woori Yallok (WYK)", "code": "WYK", "network": "AusNet", "constrained": true, "limitations": "Reliability"}}, {"type": "Feature", "geometry": {"type": "Point", "coordinates": [145.60978, -38.59392]}, "properties": {"name": "WOTS - Wodonga Terminal Station (WOTS)", "code": "WOTS", "network": "AusNet", "constrained": true, "limitations": "Reliability"}}, {"type": "Feature", "geometry": {"type": "Point", "coordinates": [145.96176, -36.55601]}, "properties": {"name": "bn11 - Benalla 11 Feeder", "code": "bn11", "network": "AusNet", "constrained": true, "limitations": "Reliability"}}, {"type": "Feature", "geometry": {"type": "Point", "coordinates": [145.96176, -36.55601]}, "properties": {"name": "bn24 - Benalla 24 Feeder", "code": "bn24", "network": "AusNet", "constrained": true, "limitations": "Capacity"}}, {"type": "Feature", "geometry": {"type": "Point", "coordinates": [145.34771, -38.01373]}, "properties": {"name": "bwn12 - Berwick North 12 feeder", "code": "bwn12", "network": "AusNet", "constrained": true, "limitations": "Capacity"}}, {"type": "Feature", "geometry": {"type": "Point", "coordinates": [145.27189, -37.83473]}, "properties": {"name": "bwr22 - Bayswater 22 Feeder", "code": "bwr22", "network": "AusNet", "constrained": true, "limitations": "Capacity"}}, {"type": "Feature", "geometry": {"type": "Point", "coordinates": [145.33297, -38.09483]}, "properties": {"name": "cln11 - Clyde North 11 Feeder", "code": "cln11", "network": "AusNet", "constrained": true, "limitations": "Capacity"}}, {"type": "Feature", "geometry": {"type": "Point", "coordinates": [145.33297, -38.09483]}, "properties": {"name": "cln13 - Clyde North 13 Feeder", "code": "cln13", "network": "AusNet", "constrained": true, "limitations": "Capacity"}}, {"type": "Feature", "geometry": {"type": "Point", "coordinates": [145.33297, -38.09483]}, "properties": {"name": "cln14 - Clyde North 14 Feeder", "code": "cln14", "network": "AusNet", "constrained": true, "limitations": "Capacity"}}, {"type": "Feature", "geometry": {"type": "Point", "coordinates": [145.33297, -38.09483]}, "properties": {"name": "cln21 - Clyde North 21 Feeder", "code": "cln21", "network": "AusNet", "constrained": true, "limitations": "Capacity"}}, {"type": "Feature", "geometry": {"type": "Point", "coordinates": [145.33297, -38.09483]}, "properties": {"name": "cln22 - Clyde North 22 Feeder", "code": "cln22", "network": "AusNet", "constrained": true, "limitations": "Capacity"}}, {"type": "Feature", "geometry": {"type": "Point", "coordinates": [145.33297, -38.09483]}, "properties": {"name": "cln23 - Clyde North 23 Feeder", "code": "cln23", "network": "AusNet", "constrained": true, "limitations": "Capacity"}}, {"type": "Feature", "geometry": {"type": "Point", "coordinates": [145.26328, -38.08074]}, "properties": {"name": "cre21 - Cranbourne 21 Feeder", "code": "cre21", "network": "AusNet", "constrained": true, "limitations": "Capacity"}}, {"type": "Feature", "geometry": {"type": "Point", "coordinates": [145.26328, -38.08074]}, "properties": {"name": "cre23 - Cranbourne 23 Feeder", "code": "cre23", "network": "AusNet", "constrained": true, "limitations": "Capacity"}}, {"type": "Feature", "geometry": {"type": "Point", "coordinates": [145.26328, -38.08074]}, "properties": {"name": "cre31 - Cranbourne 31 Feeder", "code": "cre31", "network": "AusNet", "constrained": true, "limitations": "Capacity"}}, {"type": "Feature", "geometry": {"type": "Point", "coordinates": [145.26328, -38.08074]}, "properties": {"name": "cre33 - Cranbourne 33 Feeder", "code": "cre33", "network": "AusNet", "constrained": true, "limitations": "Capacity"}}, {"type": "Feature", "geometry": {"type": "Point", "coordinates": [145.13389, -37.60524]}, "properties": {"name": "drn11 - Doreen 11 Feeder", "code": "drn11", "network": "AusNet", "constrained": true, "limitations": "Capacity"}}, {"type": "Feature", "geometry": {"type": "Point", "coordinates": [145.13865, -37.71667]}, "properties": {"name": "elm21 - Eltham 21 Feeder", "code": "elm21", "network": "AusNet", "constrained": true, "limitations": "Capacity"}}, {"type": "Feature", "geometry": {"type": "Point", "coordinates": [145.02631, -37.65253]}, "properties": {"name": "epg12 - Epping 12 Feeder", "code": "epg12", "network": "AusNet", "constrained": true, "limitations": "Capacity"}}, {"type": "Feature", "geometry": {"type": "Point", "coordinates": [145.02631, -37.65253]}, "properties": {"name": "epg13 - Epping 13 Feeder", "code": "epg13", "network": "AusNet", "constrained": true, "limitations": "Capacity"}}, {"type": "Feature", "geometry": {"type": "Point", "coordinates": [145.02631, -37.65253]}, "properties": {"name": "epg21 - Epping 21 Feeder", "code": "epg21", "network": "AusNet", "constrained": true, "limitations": "Capacity"}}, {"type": "Feature", "geometry": {"type": "Point", "coordinates": [145.02631, -37.65253]}, "properties": {"name": "epg23 - Epping 23 Feeder", "code": "epg23", "network": "AusNet", "constrained": true, "limitations": "Capacity"}}, {"type": "Feature", "geometry": {"type": "Point", "coordinates": [145.02631, -37.65253]}, "properties": {"name": "epg31 - Epping 31 Feeder", "code": "epg31", "network": "AusNet", "constrained": true, "limitations": "Capacity"}}, {"type": "Feature", "geometry": {"type": "Point", "coordinates": [145.02631, -37.65253]}, "properties": {"name": "epg32 - Epping 32 Feeder", "code": "epg32", "network": "AusNet", "constrained": true, "limitations": "Capacity"}}, {"type": "Feature", "geometry": {"type": "Point", "coordinates": [145.02631, -37.65253]}, "properties": {"name": "epg33 - Epping 33 Feeder", "code": "epg33", "network": "AusNet", "constrained": true, "limitations": "Capacity"}}, {"type": "Feature", "geometry": {"type": "Point", "coordinates": [145.02631, -37.65253]}, "properties": {"name": "epg35 - Epping 35 Feeder", "code": "epg35", "network": "AusNet", "constrained": true, "limitations": "Capacity"}}, {"type": "Feature", "geometry": {"type": "Point", "coordinates": [145.26667, -38.03588]}, "properties": {"name": "hpk22 - Hampton Park 22 Feeder", "code": "hpk22", "network": "AusNet", "constrained": true, "limitations": "Capacity"}}, {"type": "Feature", "geometry": {"type": "Point", "coordinates": [145.26667, -38.03588]}, "properties": {"name": "hpk23 - Hampton Park 23 Feeder", "code": "hpk23", "network": "AusNet", "constrained": true, "limitations": "Capacity"}}, {"type": "Feature", "geometry": {"type": "Point", "coordinates": [145.26667, -38.03588]}, "properties": {"name": "hpk24 - Hampton park 24 Feeder", "code": "hpk24", "network": "AusNet", "constrained": true, "limitations": "Capacity"}}, {"type": "Feature", "geometry": {"type": "Point", "coordinates": [144.940788225, -37.538614529]}, "properties": {"name": "klo14 - Kalkallo 14 Feeder", "code": "klo14", "network": "AusNet", "constrained": true, "limitations": "Capacity"}}, {"type": "Feature", "geometry": {"type": "Point", "coordinates": [144.940788225, -37.538614529]}, "properties": {"name": "klo24 - Kakllo 24 Feeder", "code": "klo24", "network": "AusNet", "constrained": true, "limitations": "Capacity"}}, {"type": "Feature", "geometry": {"type": "Point", "coordinates": [144.97194, -37.31799]}, "properties": {"name": "kms12 - Kilmore South 12 Feeder", "code": "kms12", "network": "AusNet", "constrained": true, "limitations": "Capacity"}}, {"type": "Feature", "geometry": {"type": "Point", "coordinates": [146.25615, -38.17063]}, "properties": {"name": "moe23 - Moe 23 Feeder", "code": "moe23", "network": "AusNet", "constrained": true, "limitations": "Capacity"}}, {"type": "Feature", "geometry": {"type": "Point", "coordinates": [146.07123, -37.05044]}, "properties": {"name": "msd4 - Mansfield 4 Feeder", "code": "msd4", "network": "AusNet", "constrained": true, "limitations": "Capacity"}}, {"type": "Feature", "geometry": {"type": "Point", "coordinates": [145.444574095, -38.051720237]}, "properties": {"name": "ofr11 - Officer 11 Feeder", "code": "ofr11", "network": "AusNet", "constrained": true, "limitations": "Capacity"}}, {"type": "Feature", "geometry": {"type": "Point", "coordinates": [145.444574095, -38.051720237]}, "properties": {"name": "ofr14 - Officer 14 Feeder", "code": "ofr14", "network": "AusNet", "constrained": true, "limitations": "Capacity"}}, {"type": "Feature", "geometry": {"type": "Point", "coordinates": [145.444574095, -38.051720237]}, "properties": {"name": "ofr21 - Officer 21 Feeder", "code": "ofr21", "network": "AusNet", "constrained": true, "limitations": "Capacity"}}, {"type": "Feature", "geometry": {"type": "Point", "coordinates": [145.49419, -38.07079]}, "properties": {"name": "phm21 - Pakenham 21 Feeder", "code": "phm21", "network": "AusNet", "constrained": true, "limitations": "Capacity"}}, {"type": "Feature", "geometry": {"type": "Point", "coordinates": [145.49419, -38.07079]}, "properties": {"name": "phm22 - Pakenham 22 Feeder", "code": "phm22", "network": "AusNet", "constrained": true, "limitations": "Capacity"}}, {"type": "Feature", "geometry": {"type": "Point", "coordinates": [145.49419, -38.07079]}, "properties": {"name": "phm32 - Pakenham 32 Feeder", "code": "phm32", "network": "AusNet", "constrained": true, "limitations": "Capacity"}}, {"type": "Feature", "geometry": {"type": "Point", "coordinates": [145.15452, -37.03603]}, "properties": {"name": "smr24 - Seymour 24 Feeder", "code": "smr24", "network": "AusNet", "constrained": true, "limitations": "Capacity"}}, {"type": "Feature", "geometry": {"type": "Point", "coordinates": [146.56011, -38.18926]}, "properties": {"name": "tgn31 - Traralgon 31 Feeder", "code": "tgn31", "network": "AusNet", "constrained": true, "limitations": "Capacity"}}, {"type": "Feature", "geometry": {"type": "Point", "coordinates": [146.56011, -38.18926]}, "properties": {"name": "tgn11 - Traralgon 11 Feeder", "code": "tgn11", "network": "AusNet", "constrained": true, "limitations": "Capacity"}}, {"type": "Feature", "geometry": {"type": "Point", "coordinates": [145.942734283, -38.154092261]}, "properties": {"name": "wgl13 - Waragul 13 Feeder", "code": "wgl13", "network": "AusNet", "constrained": true, "limitations": "Capacity"}}, {"type": "Feature", "geometry": {"type": "Point", "coordinates": [145.942734283, -38.154092261]}, "properties": {"name": "wgl21 - Waragul 21 Feeder", "code": "wgl21", "network": "AusNet", "constrained": true, "limitations": "Capacity"}}, {"type": "Feature", "geometry": {"type": "Point", "coordinates": [146.31435, -36.36455]}, "properties": {"name": "wn2 - Wangarrata 2 feeder", "code": "wn2", "network": "AusNet", "constrained": true, "limitations": "Capacity"}}, {"type": "Feature", "geometry": {"type": "Point", "coordinates": [146.31435, -36.36455]}, "properties": {"name": "wn4 - Wangarrata 4 Feeder", "code": "wn4", "network": "AusNet", "constrained": true, "limitations": "Capacity"}}, {"type": "Feature", "geometry": {"type": "Point", "coordinates": [146.31435, -36.36455]}, "properties": {"name": "wn6 - Wangarata 6 Feeder", "code": "wn6", "network": "AusNet", "constrained": true, "limitations": "Capacity"}}, {"type": "Feature", "geometry": {"type": "Point", "coordinates": [146.94987, -36.15494]}, "properties": {"name": "wots11 - Wodonga Terminal Station 11 Feeder", "code": "wots11", "network": "AusNet", "constrained": true, "limitations": "Capacity"}}, {"type": "Feature", "geometry": {"type": "Point", "coordinates": [146.94987, -36.15494]}, "properties": {"name": "wots25 - Wodonga Terminal Station 25 Feeder", "code": "wots25", "network": "AusNet", "constrained": true, "limitations": "Capacity"}}, {"type": "Feature", "geometry": {"type": "Point", "coordinates": [142.6621851, -34.8044645]}, "properties": {"name": "Wemen", "code": "WMN", "network": "Powercor", "constrained": true, "limitations": "Capacity constrained"}}, {"type": "Feature", "geometry": {"type": "Point", "coordinates": [144.5710723, -38.1728304]}, "properties": {"name": "Drysdale", "code": "DDL", "network": "Powercor", "constrained": true, "limitations": "Capacity constrained"}}, {"type": "Feature", "geometry": {"type": "Point", "coordinates": [144.4366202, -37.6751897]}, "properties": {"name": "Bacchus Marsh zone substation", "code": "BMH", "network": "Powercor", "constrained": true, "limitations": "Capacity constrained"}}, {"type": "Feature", "geometry": {"type": "Point", "coordinates": [144.5828446, -37.6835714]}, "properties": {"name": "Melton zone substation", "code": "MLN", "network": "Powercor", "constrained": true, "limitations": "Capacity constrained"}}, {"type": "Feature", "geometry": {"type": "Point", "coordinates": [144.7723486, -37.8637978]}, "properties": {"name": "Laverton zone substation", "code": "LV", "network": "Powercor", "constrained": true, "limitations": "Capacity constrained"}}, {"type": "Feature", "geometry": {"type": "Point", "coordinates": [144.6609036, -37.8995007]}, "properties": {"name": "Werribee zone substation", "code": "WBE", "network": "Powercor", "constrained": true, "limitations": "Capacity constrained"}}, {"type": "Feature", "geometry": {"type": "Point", "coordinates": [153.5094444, -28.2455556]}, "properties": {"name": "Terranora area (1 constrained feeders)", "code": "TERRAN", "network": "Essential Energy", "constrained": true, "limitations": "1 distribution feeders constrained"}}, {"type": "Feature", "geometry": {"type": "Point", "coordinates": [153.2791883, -28.8077608]}, "properties": {"name": "Lismore area (6 constrained feeders)", "code": "LISMOR", "network": "Essential Energy", "constrained": true, "limitations": "6 distribution feeders constrained"}}, {"type": "Feature", "geometry": {"type": "Point", "coordinates": [153.048155, -28.8631616]}, "properties": {"name": "Casino area (1 constrained feeders)", "code": "CASINO", "network": "Essential Energy", "constrained": true, "limitations": "1 distribution feeders constrained"}}, {"type": "Feature", "geometry": {"type": "Point", "coordinates": [152.9333435, -29.69125]}, "properties": {"name": "Grafton area (5 constrained feeders)", "code": "GRAFTO", "network": "Essential Energy", "constrained": true, "limitations": "5 distribution feeders constrained"}}, {"type": "Feature", "geometry": {"type": "Point", "coordinates": [153.1135293, -30.2962407]}, "properties": {"name": "Coffs Harbour area (2 constrained feeders)", "code": "COFFS ", "network": "Essential Energy", "constrained": true, "limitations": "2 distribution feeders constrained"}}, {"type": "Feature", "geometry": {"type": "Point", "coordinates": [152.5228021, -30.9056457]}, "properties": {"name": "Kempsey area (2 constrained feeders)", "code": "KEMPSE", "network": "Essential Energy", "constrained": true, "limitations": "2 distribution feeders constrained"}}, {"type": "Feature", "geometry": {"type": "Point", "coordinates": [152.9103525, -31.4299499]}, "properties": {"name": "Port Macquarie area (2 constrained feeders)", "code": "PORT M", "network": "Essential Energy", "constrained": true, "limitations": "2 distribution feeders constrained"}}, {"type": "Feature", "geometry": {"type": "Point", "coordinates": [152.4608481, -31.912864]}, "properties": {"name": "Taree area (3 constrained feeders)", "code": "TAREE", "network": "Essential Energy", "constrained": true, "limitations": "3 distribution feeders constrained"}}, {"type": "Feature", "geometry": {"type": "Point", "coordinates": [151.9674197, -32.4026969]}, "properties": {"name": "Stroud area (1 constrained feeders)", "code": "STROUD", "network": "Essential Energy", "constrained": true, "limitations": "1 distribution feeders constrained"}}, {"type": "Feature", "geometry": {"type": "Point", "coordinates": [152.1780485, -32.6721939]}, "properties": {"name": "Hawks Nest area (2 constrained feeders)", "code": "HAWKS ", "network": "Essential Energy", "constrained": true, "limitations": "2 distribution feeders constrained"}}, {"type": "Feature", "geometry": {"type": "Point", "coordinates": [151.6656564, -30.5144881]}, "properties": {"name": "Armidale area (8 constrained feeders)", "code": "ARMIDA", "network": "Essential Energy", "constrained": true, "limitations": "8 distribution feeders constrained"}}, {"type": "Feature", "geometry": {"type": "Point", "coordinates": [151.1770693, -29.4367981]}, "properties": {"name": "Inverell area (4 constrained feeders)", "code": "INVERE", "network": "Essential Energy", "constrained": true, "limitations": "4 distribution feeders constrained"}}, {"type": "Feature", "geometry": {"type": "Point", "coordinates": [149.8407153, -29.4617202]}, "properties": {"name": "Moree area (2 constrained feeders)", "code": "MOREE", "network": "Essential Energy", "constrained": true, "limitations": "2 distribution feeders constrained"}}, {"type": "Feature", "geometry": {"type": "Point", "coordinates": [150.2036527, -31.0237593]}, "properties": {"name": "Gunnedah area (1 constrained feeders)", "code": "GUNNED", "network": "Essential Energy", "constrained": true, "limitations": "1 distribution feeders constrained"}}, {"type": "Feature", "geometry": {"type": "Point", "coordinates": [150.9290159, -31.0900743]}, "properties": {"name": "Tamworth area (7 constrained feeders)", "code": "TAMWOR", "network": "Essential Energy", "constrained": true, "limitations": "7 distribution feeders constrained"}}, {"type": "Feature", "geometry": {"type": "Point", "coordinates": [149.4431163, -32.3430231]}, "properties": {"name": "Beryl area (2 constrained feeders)", "code": "BERYL", "network": "Essential Energy", "constrained": true, "limitations": "2 distribution feeders constrained"}}, {"type": "Feature", "geometry": {"type": "Point", "coordinates": [148.9515327, -32.5542815]}, "properties": {"name": "Wellington area (2 constrained feeders)", "code": "WELLIN", "network": "Essential Energy", "constrained": true, "limitations": "2 distribution feeders constrained"}}, {"type": "Feature", "geometry": {"type": "Point", "coordinates": [148.6026502, -32.2478964]}, "properties": {"name": "Dubbo area (5 constrained feeders)", "code": "DUBBO", "network": "Essential Energy", "constrained": true, "limitations": "5 distribution feeders constrained"}}, {"type": "Feature", "geometry": {"type": "Point", "coordinates": [147.1965904, -31.56287]}, "properties": {"name": "Nyngan area (1 constrained feeders)", "code": "NYNGAN", "network": "Essential Energy", "constrained": true, "limitations": "1 distribution feeders constrained"}}, {"type": "Feature", "geometry": {"type": "Point", "coordinates": [141.4511111, -31.965]}, "properties": {"name": "Broken Hill area (3 constrained feeders)", "code": "BROKEN", "network": "Essential Energy", "constrained": true, "limitations": "3 distribution feeders constrained"}}, {"type": "Feature", "geometry": {"type": "Point", "coordinates": [149.0971567, -33.2820463]}, "properties": {"name": "Orange area (3 constrained feeders)", "code": "ORANGE", "network": "Essential Energy", "constrained": true, "limitations": "3 distribution feeders constrained"}}, {"type": "Feature", "geometry": {"type": "Point", "coordinates": [149.5803725, -33.4166482]}, "properties": {"name": "Bathurst area (12 constrained feeders)", "code": "BATHUR", "network": "Essential Energy", "constrained": true, "limitations": "12 distribution feeders constrained"}}, {"type": "Feature", "geometry": {"type": "Point", "coordinates": [147.9761363, -32.8225409]}, "properties": {"name": "Parkes area (2 constrained feeders)", "code": "PARKES", "network": "Essential Energy", "constrained": true, "limitations": "2 distribution feeders constrained"}}, {"type": "Feature", "geometry": {"type": "Point", "coordinates": [150.1470541, -35.8935037]}, "properties": {"name": "Moruya North area (1 constrained feeders)", "code": "MORUYA", "network": "Essential Energy", "constrained": true, "limitations": "1 distribution feeders constrained"}}, {"type": "Feature", "geometry": {"type": "Point", "coordinates": [149.8408283, -36.6780983]}, "properties": {"name": "Bega area (1 constrained feeders)", "code": "BEGA", "network": "Essential Energy", "constrained": true, "limitations": "1 distribution feeders constrained"}}, {"type": "Feature", "geometry": {"type": "Point", "coordinates": [149.3846, -36.5485]}, "properties": {"name": "Steeple Flat area (1 constrained feeders)", "code": "STEEPL", "network": "Essential Energy", "constrained": true, "limitations": "1 distribution feeders constrained"}}, {"type": "Feature", "geometry": {"type": "Point", "coordinates": [149.7198009, -34.7523871]}, "properties": {"name": "Goulburn area (2 constrained feeders)", "code": "GOULBU", "network": "Essential Energy", "constrained": true, "limitations": "2 distribution feeders constrained"}}, {"type": "Feature", "geometry": {"type": "Point", "coordinates": [148.6935649, -33.8111285]}, "properties": {"name": "Cowra area (1 constrained feeders)", "code": "COWRA", "network": "Essential Energy", "constrained": true, "limitations": "1 distribution feeders constrained"}}, {"type": "Feature", "geometry": {"type": "Point", "coordinates": [148.9110055, -34.8418629]}, "properties": {"name": "Yass area (1 constrained feeders)", "code": "YASS", "network": "Essential Energy", "constrained": true, "limitations": "1 distribution feeders constrained"}}, {"type": "Feature", "geometry": {"type": "Point", "coordinates": [147.1197629, -35.6576988]}, "properties": {"name": "Morven area (1 constrained feeders)", "code": "MORVEN", "network": "Essential Energy", "constrained": true, "limitations": "1 distribution feeders constrained"}}, {"type": "Feature", "geometry": {"type": "Point", "coordinates": [146.9162795, -36.0804766]}, "properties": {"name": "Albury area (3 constrained feeders)", "code": "ALBURY", "network": "Essential Energy", "constrained": true, "limitations": "3 distribution feeders constrained"}}, {"type": "Feature", "geometry": {"type": "Point", "coordinates": [145.5780957, -35.6446552]}, "properties": {"name": "Finley area (1 constrained feeders)", "code": "FINLEY", "network": "Essential Energy", "constrained": true, "limitations": "1 distribution feeders constrained"}}, {"type": "Feature", "geometry": {"type": "Point", "coordinates": [144.9597178, -35.5302183]}, "properties": {"name": "Deniliquin area (1 constrained feeders)", "code": "DENILI", "network": "Essential Energy", "constrained": true, "limitations": "1 distribution feeders constrained"}}, {"type": "Feature", "geometry": {"type": "Point", "coordinates": [146.0002828, -34.5659957]}, "properties": {"name": "Darlington Point area (2 constrained feeders)", "code": "DARLIN", "network": "Essential Energy", "constrained": true, "limitations": "2 distribution feeders constrained"}}, {"type": "Feature", "geometry": {"type": "Point", "coordinates": [146.0081042, -34.334545]}, "properties": {"name": "Griffith area (2 constrained feeders)", "code": "GRIFFI", "network": "Essential Energy", "constrained": true, "limitations": "2 distribution feeders constrained"}}, {"type": "Feature", "geometry": {"type": "Point", "coordinates": [146.4106268, -34.6028347]}, "properties": {"name": "Yanco area (1 constrained feeders)", "code": "YANCO", "network": "Essential Energy", "constrained": true, "limitations": "1 distribution feeders constrained"}}]}