{"type": "FeatureCollection", "features": [{"type": "Feature", "geometry": {"type": "Point", "coordinates": [152.961725080243, -27.3964373692558]}, "properties": {"name": "AHL - Arana Hills (33/11kV)", "code": "AHL", "network": "Energex", "constrained": true, "capacityMVA": 59.8, "peakLoadMVA": 43.2, "type": "Zone Substation"}}, {"type": "Feature", "geometry": {"type": "Point", "coordinates": [153.015526110032, -27.3285551291125]}, "properties": {"name": "BHL - Bald Hills Bus 2 (33/11kV)", "code": "BHL", "network": "Energex", "constrained": true, "capacityMVA": 30, "peakLoadMVA": 14.5, "type": "Zone Substation"}}, {"type": "Feature", "geometry": {"type": "Point", "coordinates": [153.22100997029, -27.5084847392346]}, "properties": {"name": "BKD - Birkdale (33/11kV)", "code": "BKD", "network": "Energex", "constrained": true, "capacityMVA": 59.9, "peakLoadMVA": 38.2, "type": "Zone Substation"}}, {"type": "Feature", "geometry": {"type": "Point", "coordinates": [153.153920829714, -27.0635990199376]}, "properties": {"name": "BIS - Bribie Island (33/11kV)", "code": "BIS", "network": "Energex", "constrained": true, "capacityMVA": 41.6, "peakLoadMVA": 28.4, "type": "Zone Substation"}}, {"type": "Feature", "geometry": {"type": "Point", "coordinates": [152.934551750617, -27.0811834200423]}, "properties": {"name": "CBW - Caboolture West (33/11kV)", "code": "CBW", "network": "Energex", "constrained": true, "capacityMVA": 58.5, "peakLoadMVA": 40, "type": "Zone Substation"}}, {"type": "Feature", "geometry": {"type": "Point", "coordinates": [153.050720330081, -27.6151612889068]}, "properties": {"name": "CMV - Calamvale (33/11kV)", "code": "CMV", "network": "Energex", "constrained": true, "capacityMVA": 59.1, "peakLoadMVA": 47.8, "type": "Zone Substation"}}, {"type": "Feature", "geometry": {"type": "Point", "coordinates": [153.130910120125, -26.8006190485262]}, "properties": {"name": "CLD - Caloundra (132/11kV)", "code": "CLD", "network": "Energex", "constrained": true, "capacityMVA": 115.1, "peakLoadMVA": 79.5, "type": "Zone Substation"}}, {"type": "Feature", "geometry": {"type": "Point", "coordinates": [153.293843960101, -27.85516656834]}, "properties": {"name": "CMA - Coomera (33/11kV)", "code": "CMA", "network": "Energex", "constrained": true, "capacityMVA": 59, "peakLoadMVA": 54.6, "type": "Zone Substation"}}, {"type": "Feature", "geometry": {"type": "Point", "coordinates": [152.820445439292, -27.6365388190397]}, "properties": {"name": "CNA - Cooneana (33/11kV)", "code": "CNA", "network": "Energex", "constrained": true, "capacityMVA": 26.3, "peakLoadMVA": 19.8, "type": "Zone Substation"}}, {"type": "Feature", "geometry": {"type": "Point", "coordinates": [153.214817410196, -27.6635938098302]}, "properties": {"name": "CNB - Cornubia (33/11kV)", "code": "CNB", "network": "Energex", "constrained": true, "capacityMVA": 30, "peakLoadMVA": 15.9, "type": "Zone Substation"}}, {"type": "Feature", "geometry": {"type": "Point", "coordinates": [153.165147379851, -27.3936336996837]}, "properties": {"name": "FBS - Fisherman Is B (33/11kV)", "code": "FBS", "network": "Energex", "constrained": true, "capacityMVA": 26.3, "peakLoadMVA": 14.2, "type": "Zone Substation"}}, {"type": "Feature", "geometry": {"type": "Point", "coordinates": [152.877843683944, -27.6216942116452]}, "properties": {"name": "GNA - Goodna (33/11kV)", "code": "GNA", "network": "Energex", "constrained": true, "capacityMVA": 27.5, "peakLoadMVA": 19.3, "type": "Zone Substation"}}, {"type": "Feature", "geometry": {"type": "Point", "coordinates": [152.980079311264, -27.642459529033]}, "properties": {"name": "HWD - Heathwood (33/11kV)", "code": "HWD", "network": "Energex", "constrained": true, "capacityMVA": 52.1, "peakLoadMVA": 35.8, "type": "Zone Substation"}}, {"type": "Feature", "geometry": {"type": "Point", "coordinates": [153.360377940746, -27.8792978982875]}, "properties": {"name": "HIS - Hope Island (33/11kV)", "code": "HIS", "network": "Energex", "constrained": true, "capacityMVA": 58.1, "peakLoadMVA": 47.3, "type": "Zone Substation"}}, {"type": "Feature", "geometry": {"type": "Point", "coordinates": [152.761000039456, -27.6387483381442]}, "properties": {"name": "IPS - Ipswich South (33/11kV)", "code": "IPS", "network": "Energex", "constrained": true, "capacityMVA": 60, "peakLoadMVA": 31.8, "type": "Zone Substation"}}, {"type": "Feature", "geometry": {"type": "Point", "coordinates": [153.044443680182, -27.8089274697989]}, "properties": {"name": "JBB - Jimboomba (33/11kV)", "code": "JBB", "network": "Energex", "constrained": true, "capacityMVA": 48, "peakLoadMVA": 42.9, "type": "Zone Substation"}}, {"type": "Feature", "geometry": {"type": "Point", "coordinates": [152.993763081074, -27.2511543893177]}, "properties": {"name": "KLG - Kallangur (33/11kV)", "code": "KLG", "network": "Energex", "constrained": true, "capacityMVA": 44.6, "peakLoadMVA": 51, "type": "Zone Substation"}}, {"type": "Feature", "geometry": {"type": "Point", "coordinates": [152.969987159941, -26.8080189494183]}, "properties": {"name": "LBH - Landsborough (33/11kV)", "code": "LBH", "network": "Energex", "constrained": true, "capacityMVA": 30, "peakLoadMVA": 20.1, "type": "Zone Substation"}}, {"type": "Feature", "geometry": {"type": "Point", "coordinates": [153.10922646007, -27.7700961890107]}, "properties": {"name": "LGV - Logan Village (33/11kV)", "code": "LGV", "network": "Energex", "constrained": true, "capacityMVA": 30, "peakLoadMVA": 32.7, "type": "Zone Substation"}}, {"type": "Feature", "geometry": {"type": "Point", "coordinates": [152.593735989717, -27.5654210500054]}, "properties": {"name": "MBG - Marburg (33/11kV)", "code": "MBG", "network": "Energex", "constrained": true, "capacityMVA": 7.2, "peakLoadMVA": 7.7, "type": "Zone Substation"}}, {"type": "Feature", "geometry": {"type": "Point", "coordinates": [153.068878949997, -26.7090468595524]}, "properties": {"name": "MLB - Mooloolaba (132/11kV)", "code": "MLB", "network": "Energex", "constrained": true, "capacityMVA": 67.8, "peakLoadMVA": 55.1, "type": "Zone Substation"}}, {"type": "Feature", "geometry": {"type": "Point", "coordinates": [152.959378599376, -27.1341615589466]}, "properties": {"name": "MFD - Morayfield (33/11kV)", "code": "MFD", "network": "Energex", "constrained": true, "capacityMVA": 47.8, "peakLoadMVA": 40.6, "type": "Zone Substation"}}, {"type": "Feature", "geometry": {"type": "Point", "coordinates": [152.951820839699, -27.0979674189031]}, "properties": {"name": "MFN - Morayfield North (33/11kV)", "code": "MFN", "network": "Energex", "constrained": true, "capacityMVA": 53.5, "peakLoadMVA": 41.6, "type": "Zone Substation"}}, {"type": "Feature", "geometry": {"type": "Point", "coordinates": [153.35253809032, -28.0829992290861]}, "properties": {"name": "MGP - Mudgeeraba West Pkg (33/11kV)", "code": "MGP", "network": "Energex", "constrained": true, "capacityMVA": 45, "peakLoadMVA": 30, "type": "Zone Substation"}}, {"type": "Feature", "geometry": {"type": "Point", "coordinates": [152.986151070711, -27.7444018694427]}, "properties": {"name": "NMC - North Maclean Bus 1 (33/11kV)", "code": "NMC", "network": "Energex", "constrained": true, "capacityMVA": 30, "peakLoadMVA": 33.5, "type": "Zone Substation"}}, {"type": "Feature", "geometry": {"type": "Point", "coordinates": [152.986151070711, -27.7444018694427]}, "properties": {"name": "NMC - North Maclean Bus 2 (33/11kV)", "code": "NMC", "network": "Energex", "constrained": true, "capacityMVA": 30, "peakLoadMVA": 21.8, "type": "Zone Substation"}}, {"type": "Feature", "geometry": {"type": "Point", "coordinates": [152.95026354973, -26.689331249498]}, "properties": {"name": "PWC - Palmwoods Central (33/11kV)", "code": "PWC", "network": "Energex", "constrained": true, "capacityMVA": 30.3, "peakLoadMVA": 29.8, "type": "Zone Substation"}}, {"type": "Feature", "geometry": {"type": "Point", "coordinates": [153.335594200208, -27.8111817192334]}, "properties": {"name": "PPE - Pimpama East (33/11kV)", "code": "PPE", "network": "Energex", "constrained": true, "capacityMVA": 59.5, "peakLoadMVA": 51.6, "type": "Zone Substation"}}, {"type": "Feature", "geometry": {"type": "Point", "coordinates": [152.899750490201, -27.2260933587117]}, "properties": {"name": "WSE - Whiteside (33/11kV)", "code": "WSE", "network": "Energex", "constrained": true, "capacityMVA": 16.5, "peakLoadMVA": 11.6, "type": "Zone Substation"}}, {"type": "Feature", "geometry": {"type": "Point", "coordinates": [152.630458380078, -27.4098407894071]}, "properties": {"name": "WHO - Wivenhoe (33/11kV)", "code": "WHO", "network": "Energex", "constrained": true, "capacityMVA": 11.5, "peakLoadMVA": 7.9, "type": "Zone Substation"}}, {"type": "Feature", "geometry": {"type": "Point", "coordinates": [152.788581859721, -26.9707128196086]}, "properties": {"name": "WFD - Woodford (33/11kV)", "code": "WFD", "network": "Energex", "constrained": true, "capacityMVA": 18, "peakLoadMVA": 15.8, "type": "Zone Substation"}}, {"type": "Feature", "geometry": {"type": "Point", "coordinates": [153.228842719252, -27.760881389014]}, "properties": {"name": "YTA - Yatala Bus 3 (110/11kV)", "code": "YTA", "network": "Energex", "constrained": true, "capacityMVA": 66, "peakLoadMVA": 49.7, "type": "Zone Substation"}}, {"type": "Feature", "geometry": {"type": "Point", "coordinates": [153.030527670649, -27.3586081888556]}, "properties": {"name": "ZMR - Zillmere (33/11kV)", "code": "ZMR", "network": "Energex", "constrained": true, "capacityMVA": 54.8, "peakLoadMVA": 44.8, "type": "Zone Substation"}}, {"type": "Feature", "geometry": {"type": "Point", "coordinates": [153.208403156093, -27.7246877486621]}, "properties": {"name": "BLH - Beenleigh BS (110/33kV)", "code": "BLH", "network": "Energex", "constrained": true, "capacityMVA": 259.6, "peakLoadMVA": 218.9, "type": "Bulk Supply"}}, {"type": "Feature", "geometry": {"type": "Point", "coordinates": [153.037611979488, -27.6626142389633]}, "properties": {"name": "BPN - Browns Plains BS (110/33kV)", "code": "BPN", "network": "Energex", "constrained": true, "capacityMVA": 196.4, "peakLoadMVA": 192.1, "type": "Bulk Supply"}}, {"type": "Feature", "geometry": {"type": "Point", "coordinates": [152.963135602599, -27.065202684776]}, "properties": {"name": "CBT - Caboolture BS (110/33kV)", "code": "CBT", "network": "Energex", "constrained": true, "capacityMVA": 269.5, "peakLoadMVA": 212.4, "type": "Bulk Supply"}}, {"type": "Feature", "geometry": {"type": "Point", "coordinates": [153.253087060013, -27.5464240097804]}, "properties": {"name": "CVL - Cleveland BS (110/33kV)", "code": "CVL", "network": "Energex", "constrained": true, "capacityMVA": 286.5, "peakLoadMVA": 210.7, "type": "Bulk Supply"}}, {"type": "Feature", "geometry": {"type": "Point", "coordinates": [153.293843960101, -27.85516656834]}, "properties": {"name": "CMA - Coomera BS (110/33kV)", "code": "CMA", "network": "Energex", "constrained": true, "capacityMVA": 189.6, "peakLoadMVA": 159.1, "type": "Bulk Supply"}}, {"type": "Feature", "geometry": {"type": "Point", "coordinates": [153.044443680182, -27.8089274697989]}, "properties": {"name": "JBB - Jimboomba BS (110/33kV)", "code": "JBB", "network": "Energex", "constrained": true, "capacityMVA": 88, "peakLoadMVA": 102.5, "type": "Bulk Supply"}}, {"type": "Feature", "geometry": {"type": "Point", "coordinates": [152.96105092674, -26.6157214669903]}, "properties": {"name": "NBR - Nambour BS (132/33kV)", "code": "NBR", "network": "Energex", "constrained": true, "capacityMVA": 143.8, "peakLoadMVA": 115.3, "type": "Bulk Supply"}}, {"type": "Feature", "geometry": {"type": "Point", "coordinates": [152.778882600531, -27.630670719858]}, "properties": {"name": "RVW - Raceview BS (110/33kV)", "code": "RVW", "network": "Energex", "constrained": true, "capacityMVA": 132, "peakLoadMVA": 140.3, "type": "Bulk Supply"}}, {"type": "Feature", "geometry": {"type": "Point", "coordinates": [148.1618622, -23.5263118]}, "properties": {"name": "EMER - Emerald (66/22kV)", "code": "EMER", "network": "Ergon", "constrained": true, "limitations": "Asset Condition, Reliability", "type": "Zone Substation"}}, {"type": "Feature", "geometry": {"type": "Point", "coordinates": [146.7709268, -19.255792]}, "properties": {"name": "GARB - Garbutt (132/66/11kV)", "code": "GARB", "network": "Ergon", "constrained": true, "limitations": "Asset Condition, Reliability", "type": "Zone Substation"}}, {"type": "Feature", "geometry": {"type": "Point", "coordinates": [151.9303591, -27.6030794]}, "properties": {"name": "WETO - West Toowoomba (33/11kV)", "code": "WETO", "network": "Ergon", "constrained": true, "limitations": "Asset Condtion, Reliability", "type": "Zone Substation"}}, {"type": "Feature", "geometry": {"type": "Point", "coordinates": [151.8868179, -27.54552]}, "properties": {"name": "TORR - Torrington (33/11kV)", "code": "TORR", "network": "Ergon", "constrained": true, "limitations": "Asset Condition, Reliability", "type": "Zone Substation"}}, {"type": "Feature", "geometry": {"type": "Point", "coordinates": [152.3703235, -24.8569103]}, "properties": {"name": "EABU - East Bundaberg (66/11kV)", "code": "EABU", "network": "Ergon", "constrained": true, "limitations": "Asset Condition, Reliability", "type": "Zone Substation"}}, {"type": "Feature", "geometry": {"type": "Point", "coordinates": [152.8330071, -25.281161]}, "properties": {"name": "PIAL - Pialba (66/11kV)", "code": "PIAL", "network": "Ergon", "constrained": true, "limitations": "Asset Condition, Reliability", "type": "Zone Substation"}}, {"type": "Feature", "geometry": {"type": "Point", "coordinates": [147.1550176, -22.8392872]}, "properties": {"name": "CLER - Clermont (66/22kV)", "code": "CLER", "network": "Ergon", "constrained": true, "limitations": "Asset Condition, Reliability", "type": "Zone Substation"}}, {"type": "Feature", "geometry": {"type": "Point", "coordinates": [146.5164868, -21.0251302]}, "properties": {"name": "CARI - Cape River (66/11kV)", "code": "CARI", "network": "Ergon", "constrained": true, "limitations": "Asset Condition, Reliability", "type": "Zone Substation"}}, {"type": "Feature", "geometry": {"type": "Point", "coordinates": [147.2404092, -19.700995]}, "properties": {"name": "MOPA - Mona Park (66/11kV)", "code": "MOPA", "network": "Ergon", "constrained": true, "limitations": "Asset Condition, Reliability", "type": "Zone Substation"}}, {"type": "Feature", "geometry": {"type": "Point", "coordinates": [151.8394231, -26.5412563]}, "properties": {"name": "KING - Kingaroy (66/11kV)", "code": "KING", "network": "Ergon", "constrained": true, "limitations": "Asset Condition, Reliability", "type": "Zone Substation"}}, {"type": "Feature", "geometry": {"type": "Point", "coordinates": [150.5029697, -23.3992007]}, "properties": {"name": "ROSO - Rockhampton South (66/11kV)", "code": "ROSO", "network": "Ergon", "constrained": true, "limitations": "Asset Condition, Reliability", "type": "Zone Substation"}}, {"type": "Feature", "geometry": {"type": "Point", "coordinates": [143.5476606, -18.2897926]}, "properties": {"name": "GEOR - Georgetown (66/22kV)", "code": "GEOR", "network": "Ergon", "constrained": true, "limitations": "Asset Condition, Reliability", "type": "Zone Substation"}}, {"type": "Feature", "geometry": {"type": "Point", "coordinates": [152.7019182, -25.537583]}, "properties": {"name": "MARY - Maryborough", "code": "MARY", "network": "Ergon", "constrained": true, "limitations": "Asset Condition, Reliability", "type": "Zone Substation"}}, {"type": "Feature", "geometry": {"type": "Point", "coordinates": [150.5261, -23.3528]}, "properties": {"name": "ROGL - Rockhampton Glenmore (66/11kV)", "code": "ROGL", "network": "Ergon", "constrained": true, "limitations": "Asset Condition, Reliability", "type": "Zone Substation"}}, {"type": "Feature", "geometry": {"type": "Point", "coordinates": [150.5141867, -24.3997711]}, "properties": {"name": "BILO - Biloela (66/11kV)", "code": "BILO", "network": "Ergon", "constrained": true, "limitations": "Asset Condition, Reliability", "type": "Zone Substation"}}, {"type": "Feature", "geometry": {"type": "Point", "coordinates": [151.1779748, -26.729752]}, "properties": {"name": "JAND - Jandowae (33/11kV)", "code": "JAND", "network": "Ergon", "constrained": true, "limitations": "Asset Condition, Reliability", "type": "Zone Substation"}}, {"type": "Feature", "geometry": {"type": "Point", "coordinates": [151.9185188, -27.4245587]}, "properties": {"name": "MERN - Meringandan (33/11kV)", "code": "MERN", "network": "Ergon", "constrained": true, "limitations": "Augmentation, Capacity", "type": "Zone Substation"}}, {"type": "Feature", "geometry": {"type": "Point", "coordinates": [149.0223067, -21.150371]}, "properties": {"name": "PLEY - Pleystowe (33/11kV)", "code": "PLEY", "network": "Ergon", "constrained": true, "limitations": "Asset Condition, Reliability", "type": "Zone Substation"}}, {"type": "Feature", "geometry": {"type": "Point", "coordinates": [145.4349984, -17.0853876]}, "properties": {"name": "TURK - Turkinje (132/66kV)", "code": "TURK", "network": "Ergon", "constrained": true, "limitations": "Asset Condition, Reliability", "type": "Zone Substation"}}, {"type": "Feature", "geometry": {"type": "Point", "coordinates": [150.6228556, -26.7501005]}, "properties": {"name": "CHIN - Chinchilla", "code": "CHIN", "network": "Ergon", "constrained": true, "limitations": "Asset Condition, Reliability", "type": "Zone Substation"}}, {"type": "Feature", "geometry": {"type": "Point", "coordinates": [149.1645943, -21.435808]}, "properties": {"name": "SARI - Sarina (33/11kV)", "code": "SARI", "network": "Ergon", "constrained": true, "limitations": "Asset Condition, Reliability", "type": "Zone Substation"}}, {"type": "Feature", "geometry": {"type": "Point", "coordinates": [151.2664523, -23.8645135]}, "properties": {"name": "GLSO - Gladstone South (66/11kV)", "code": "GLSO", "network": "Ergon", "constrained": true, "limitations": "Asset Condition, Reliability", "type": "Zone Substation"}}, {"type": "Feature", "geometry": {"type": "Point", "coordinates": [146.7532249, -19.305269]}, "properties": {"name": "CRAN - Cranbrook (66/11kV)", "code": "CRAN", "network": "Ergon", "constrained": true, "limitations": "Asset Condition, Reliability", "type": "Zone Substation"}}, {"type": "Feature", "geometry": {"type": "Point", "coordinates": [149.1458446, -21.2390585]}, "properties": {"name": "ROSE - Rosella (33/11kV)", "code": "ROSE", "network": "Ergon", "constrained": true, "limitations": "Asset Condition, Reliability", "type": "Zone Substation"}}, {"type": "Feature", "geometry": {"type": "Point", "coordinates": [152.0327039, -28.2163204]}, "properties": {"name": "WARW - Warwick (110/33kV)", "code": "WARW", "network": "Ergon", "constrained": true, "limitations": "Asset Condition, Reliability", "type": "Zone Substation"}}, {"type": "Feature", "geometry": {"type": "Point", "coordinates": [152.4925138, -25.1173]}, "properties": {"name": "WOOG - Woodgate (66/11kV)", "code": "WOOG", "network": "Ergon", "constrained": true, "limitations": "Asset Condition, Reliability", "type": "Zone Substation"}}, {"type": "Feature", "geometry": {"type": "Point", "coordinates": [145.7694546, -16.9044645]}, "properties": {"name": "CANO - Cairns North (132/22kV)", "code": "CANO", "network": "Ergon", "constrained": true, "limitations": "Asset Condition, Reliability", "type": "Zone Substation"}}, {"type": "Feature", "geometry": {"type": "Point", "coordinates": [151.9666667, -27.8]}, "properties": {"name": "MOSI - Mt Sibley (33/11kV)", "code": "MOSI", "network": "Ergon", "constrained": true, "limitations": "Asset Condition, Reliability", "type": "Zone Substation"}}, {"type": "Feature", "geometry": {"type": "Point", "coordinates": [147.4044626, -19.5758597]}, "properties": {"name": "AYRZ - Ayr (66/11kV)", "code": "AYRZ", "network": "Ergon", "constrained": true, "limitations": "Asset Condition, Reliability", "type": "Zone Substation"}}, {"type": "Feature", "geometry": {"type": "Point", "coordinates": [151.3926194, -27.791472]}, "properties": {"name": "PAMP - Pampas (33/11kV)", "code": "PAMP", "network": "Ergon", "constrained": true, "limitations": "Asset Condition, Reliability", "type": "Zone Substation"}}, {"type": "Feature", "geometry": {"type": "Point", "coordinates": [152.7016999, -25.5377995]}, "properties": {"name": "MACI - Maryborough City (66/11kV)", "code": "MACI", "network": "Ergon", "constrained": true, "limitations": "Asset Condition, Reliability", "type": "Zone Substation"}}, {"type": "Feature", "geometry": {"type": "Point", "coordinates": [146.2794872, -20.092656]}, "properties": {"name": "MILC - Millchester (66/11kV)", "code": "MILC", "network": "Ergon", "constrained": true, "limitations": "Asset Condition, Reliability", "type": "Zone Substation"}}, {"type": "Feature", "geometry": {"type": "Point", "coordinates": [147.2635, -19.7621]}, "properties": {"name": "CLSO - Clare South (66/11kV)", "code": "CLSO", "network": "Ergon", "constrained": true, "limitations": "Asset Condition, Reliability", "type": "Zone Substation"}}, {"type": "Feature", "geometry": {"type": "Point", "coordinates": [151.9803319, -25.4785395]}, "properties": {"name": "DEGI - Degilbo (66/11kV)", "code": "DEGI", "network": "Ergon", "constrained": true, "limitations": "Asset Condition, Reliability", "type": "Zone Substation"}}, {"type": "Feature", "geometry": {"type": "Point", "coordinates": [147.4135855, -19.659461]}, "properties": {"name": "HOHI - Home Hill (66/11kV)", "code": "HOHI", "network": "Ergon", "constrained": true, "limitations": "Asset Condition, Reliability", "type": "Zone Substation"}}]}